Organisation Code,Name,National Grouping,High Level Health Geography,Address Line 1,Address Line 2,Address Line 3,Address Line 4,Address Line 5,Postcode,Open Date,Close Date,Column 13,Column 14,Column 15,Column 16,Column 17,Contact Telephone Number,Column 19,Column 20,Column 21,Amended Record Indicator,Column 23,GOR Code,Column 25,Column 26,Column 27,Lat,Long
G6V2S,NORTH LONDON NHS FOUNDATION TRUST,Y56,QMJ,"4TH FLOOR, EAST WING",ST. PANCRAS HOSPITAL,4 ST. PANCRAS WAY,LONDON,,NW1 0PE,20241101,,,,,,,,,,,1,,H,,,,51.53665,-0.13166
R0A,MANCHESTER UNIVERSITY NHS FOUNDATION TRUST,Y62,QOP,COBBETT HOUSE,OXFORD ROAD,,MANCHESTER,,M13 9WL,20171001,,,,,,,0300 3309444,,,,1,,B,,,,53.46244,-2.22771
R0B,SOUTH TYNESIDE AND SUNDERLAND NHS FOUNDATION TRUST,Y63,QHM,SUNDERLAND ROYAL HOSPITAL,KAYLL ROAD,,SUNDERLAND,,SR4 7TP,20190401,,,,,,,,,,,1,,A,,,,54.902,-1.41
R0C,PROJECT NIGHTINGALE NHS TRUST,Y56,QMF,ROYAL VICTORIA DOCK,1 WESTERN GATEWAY,,LONDON,,E16 1XL,20200301,20200326,,,,,,,,,,1,,H,,,,51.50816,0.02865
R0D,UNIVERSITY HOSPITALS DORSET NHS FOUNDATION TRUST,Y58,QVV,MANAGEMENT OFFICES,POOLE HOSPITAL,LONGFLEET ROAD,POOLE,,BH15 2JB,20201001,,,,,,,,,,,1,,K,,,,50.72198,-1.97311
R1A,HEREFORDSHIRE AND WORCESTERSHIRE HEALTH AND CARE NHS TRUST,Y60,QGH,UNIT 2 KINGS COURT,CHARLES HASTINGS WAY,,WORCESTER,,WR5 1JR,20110701,,,,,,,,,,,1,,F,,,,52.19234,-2.17814
R1C,SOLENT NHS TRUST,Y59,QRL,SOLENT NHS TRUST HEADQUARTERS,HIGHPOINT VENUE,BURSLEDON ROAD,SOUTHAMPTON,,SO19 8BR,20110401,20240930,,,,,,,,,,1,,J,,,,50.90174,-1.33086
R1D,SHROPSHIRE COMMUNITY HEALTH NHS TRUST,Y60,QOC,MOUNT MCKINLEY,ANCHORAGE AVENUE,SHREWSBURY BUSINESS PARK,SHREWSBURY,,SY2 6FG,20110701,,,,,,,01743 277500,,,,1,,F,,,,52.691,-2.719
R1E,STAFFORDSHIRE AND STOKE ON TRENT PARTNERSHIP NHS TRUST,Y60,QNC,"2ND FLOOR, MORSTON HOUSE",,,NEWCASTLE-UNDER-LYME,,ST5 1QG,20110901,20180531,,,,,,,,,,1,,F,,,,53.01015,-2.22759
R1F,ISLE OF WIGHT NHS TRUST,Y59,QRL,ST MARYS HOSPITAL,PARKHURST ROAD,,NEWPORT,,PO30 5TG,20120401,,,,,,,,,,,1,,J,,,,50.71084,-1.30133
R1G,TORBAY AND SOUTHERN DEVON HEALTH AND CARE NHS TRUST,Y58,QJK,"BAY HOUSE, UNIT 2",RIVIERA PARK,NICHOLSON ROAD,TORQUAY,,TQ2 7TD,20120401,20150930,,,,,,,,,,1,,K,,,,50.48775,-3.55274
R1H,BARTS HEALTH NHS TRUST,Y56,QMF,THE ROYAL LONDON HOSPITAL,80 NEWARK STREET,,LONDON,,E1 2ES,20120401,,,,,,,,,,,1,,H,,,,51.51717,-0.05612
R1J,GLOUCESTERSHIRE CARE SERVICES NHS TRUST,Y58,QR1,EDWARD JENNER COURT,1010 PIONEER AVENUE,"GLOUCESTER BUSINESS PK, BROCKWORTH",GLOUCESTER,,GL3 4AW,20130322,20190930,,,,,,,,,,1,,K,,,,51.844,-2.177
R1K,LONDON NORTH WEST UNIVERSITY HEALTHCARE NHS TRUST,Y56,QRV,NORTHWICK PARK HOSPITAL,WATFORD ROAD,,HARROW,,HA1 3UJ,20141001,,,,,,,,,,,1,,H,,,,51.57541,-0.32204
R1L,ESSEX PARTNERSHIP UNIVERSITY NHS FOUNDATION TRUST,Y61,QH8,THE LODGE,LODGE APPROACH,RUNWELL,WICKFORD,,SS11 7XX,20170401,,,,,,,,,,,1,,G,,,,51.63503,0.54502
RA2,ROYAL SURREY NHS FOUNDATION TRUST,Y59,QXU,EGERTON ROAD,,,GUILDFORD,,GU2 7XX,19910401,,,,,,,01483 571122,,,,1,,J,,,,51.24102,-0.60746
RA3,WESTON AREA HEALTH NHS TRUST,Y58,QUY,WESTON GENERAL HOSPITAL,GRANGE ROAD,UPHILL,WESTON-SUPER-MARE,,BS23 4TQ,19910401,20200331,,,,,,01934 636363,,,,1,,K,,,,51.32233,-2.97141
RA4,YEOVIL DISTRICT HOSPITAL NHS FOUNDATION TRUST,Y58,QSL,YEOVIL DISTRICT HOSPITAL,HIGHER KINGSTON,,YEOVIL,,BA21 4AT,19910401,20230331,,,,,,01935 475122,,,,1,,K,,,,50.94484,-2.63471
RA7,UNIVERSITY HOSPITALS BRISTOL AND WESTON NHS FOUNDATION TRUST,Y58,QUY,TRUST HEADQUARTERS,MARLBOROUGH STREET,,BRISTOL,,BS1 3NU,19910401,,,,,,,0117 923 0000,,,,1,,K,,,,51.45948,-2.59302
RA9,TORBAY AND SOUTH DEVON NHS FOUNDATION TRUST,Y58,QJK,TORBAY HOSPITAL,NEWTON ROAD,,TORQUAY,,TQ2 7AA,19910401,,,,,,,01803 614567,,,,1,,K,,,,50.48232,-3.55379
RAE,BRADFORD TEACHING HOSPITALS NHS FOUNDATION TRUST,Y63,QWO,BRADFORD ROYAL INFIRMARY,DUCKWORTH LANE,,BRADFORD,,BD9 6RJ,19910401,,,,,,,01274 542 200,,,,1,,D,,,,53.806,-1.7947
RAJ,MID AND SOUTH ESSEX NHS FOUNDATION TRUST,Y61,QH8,PRITTLEWELL CHASE,,,WESTCLIFF-ON-SEA,,SS0 0RY,19910401,,,,,,,01702 435555,,,,1,,G,,,,51.55383,0.68862
RAL,ROYAL FREE LONDON NHS FOUNDATION TRUST,Y56,QMJ,ROYAL FREE HOSPITAL,POND STREET,,LONDON,,NW3 2QG,19910401,,,,,,,020 3758 2000,,,,1,,H,,,,51.55322,-0.16532
RAN,ROYAL NATIONAL ORTHOPAEDIC HOSPITAL NHS TRUST,Y56,QRV,BROCKLEY HILL,,,STANMORE,,HA7 4LP,19910401,,,,,,,020 3947 0100,,,,1,,H,,,,51.63257,-0.31044
RAP,NORTH MIDDLESEX UNIVERSITY HOSPITAL NHS TRUST,Y56,QMJ,NORTH MIDDLESEX HOSPITAL,STERLING WAY,,LONDON,,N18 1QX,19910401,20241231,,,,,,0208 887 3055,,,,1,,H,,,,51.61309,-0.07375
RAS,THE HILLINGDON HOSPITALS NHS FOUNDATION TRUST,Y56,QRV,PIELD HEATH ROAD,,,UXBRIDGE,,UB8 3NN,19910401,,,,,,,01895 238282,,,,1,,H,,,,51.52608,-0.46118
RAT,NORTH EAST LONDON NHS FOUNDATION TRUST,Y56,QMF,WEST WING,C E M E CENTRE,MARSH WAY,RAINHAM,,RM13 8GQ,20010401,,,,,,,0300 555 1200,,,,1,,H,,,,51.51862,0.17109
RAX,KINGSTON AND RICHMOND NHS FOUNDATION TRUST,Y56,QWE,GALSWORTHY ROAD,,,KINGSTON UPON THAMES,,KT2 7QB,19910401,,,,,,,020 8546 7711,,,,1,,H,,,,51.415,-0.283
RBA,TAUNTON AND SOMERSET NHS FOUNDATION TRUST,Y58,QSL,MUSGROVE PARK HOSPITAL,,,TAUNTON,,TA1 5DA,19910401,20200331,,,,,,01823 333444,,,,1,,K,,,,51.012,-3.122
RBB,ROYAL NATIONAL HOSPITAL FOR RHEUMATIC DISEASES NHS FOUNDATION TRUST,Y58,QOX,UPPER BOROUGH WALLS,,,BATH,,BA1 1RL,19910401,20150131,,,,,,01225 465941,,,,1,,K,,,,51.38226,-2.36144
RBD,DORSET COUNTY HOSPITAL NHS FOUNDATION TRUST,Y58,QVV,DORSET COUNTY HOSPITAL,WILLIAMS AVENUE,,DORCHESTER,,DT1 2JY,19910401,,,,,,,01305 251150,,,,1,,K,,,,50.71294,-2.44694
RBF,NUFFIELD ORTHOPAEDIC CENTRE NHS TRUST,Y59,QU9,WINDMILL ROAD,HEADINGTON,,OXFORD,,OX3 7LD,19910401,20111101,,,,,,01865 741155,,,,1,,J,,,,51.754,-1.209
RBK,WALSALL HEALTHCARE NHS TRUST,Y60,QUA,MANOR HOSPITAL,MOAT ROAD,,WALSALL,,WS2 9PS,19910401,,,,,,,01922 721172,,,,1,,F,,,,52.58233,-1.99892
RBL,WIRRAL UNIVERSITY TEACHING HOSPITAL NHS FOUNDATION TRUST,Y62,QYG,ARROWE PARK HOSPITAL,ARROWE PARK ROAD,UPTON,WIRRAL,,CH49 5PE,19910401,,,,,,,0151 678 5111,,,,1,,B,,,,53.36964,-3.09682
RBN,MERSEY AND WEST LANCASHIRE TEACHING HOSPITALS NHS TRUST,Y62,QYG,WHISTON HOSPITAL,WARRINGTON ROAD,,PRESCOT,,L35 5DR,19910401,,,,,,,0151 426 1600,,,,1,,B,,,,53.42047,-2.78495
RBQ,LIVERPOOL HEART AND CHEST HOSPITAL NHS FOUNDATION TRUST,Y62,QYG,THOMAS DRIVE,,,LIVERPOOL,,L14 3PE,19910401,,,,,,,0151 600 1616,,,,1,,B,,,,53.41115,-2.89799
RBS,ALDER HEY CHILDREN'S NHS FOUNDATION TRUST,Y62,QYG,ALDER HEY HOSPITAL,EATON ROAD,WEST DERBY,LIVERPOOL,,L12 2AP,19910401,,,,,,,0151 228 4811,,,,1,,B,,,,53.42024,-2.89872
RBT,MID CHESHIRE HOSPITALS NHS FOUNDATION TRUST,Y62,QYG,LEIGHTON HOSPITAL,LEIGHTON,,CREWE,,CW1 4QJ,19910401,,,,,,,01270 255141,,,,1,,B,,,,53.11768,-2.47586
RBV,THE CHRISTIE NHS FOUNDATION TRUST,Y62,QOP,550 WILMSLOW ROAD,WITHINGTON,,MANCHESTER,,M20 4BX,19910401,,,,,,,0161 446 3000,,,,1,,B,,,,53.42975,-2.23005
RBZ,NORTHERN DEVON HEALTHCARE NHS TRUST,Y58,QJK,NORTH DEVON DISTRICT HOSPITAL,RALEIGH PARK,,BARNSTAPLE,,EX31 4JB,19910401,20220331,,,,,,01271 322577,,,,1,,K,,,,51.0922,-4.05043
RC1,BEDFORD HOSPITAL NHS TRUST,Y61,QHG,SOUTH WING,KEMPSTON ROAD,,BEDFORD,,MK42 9DJ,19920401,20200331,,,,,,01234 355122,,,,1,,G,,,,52.12827,-0.4725
RC3,EALING HOSPITAL NHS TRUST,Y56,QRV,UXBRIDGE ROAD,,,SOUTHALL,,UB1 3HW,19920401,20140930,,,,,,020 8967 5000,,,,1,,H,,,,51.50761,-0.3455
RC9,BEDFORDSHIRE HOSPITALS NHS FOUNDATION TRUST,Y61,QHG,LEWSEY ROAD,,,LUTON,,LU4 0DZ,19920401,,,,,,,01582 491166,,,,1,,G,,,,51.894,-0.474
RCB,YORK AND SCARBOROUGH TEACHING HOSPITALS NHS FOUNDATION TRUST,Y63,QOQ,YORK HOSPITAL,WIGGINTON ROAD,,YORK,,YO31 8HE,19920401,,,,,,,01904 631313,,,,1,,D,,,,53.96895,-1.08429
RCC,SCARBOROUGH AND NORTH EAST YORKSHIRE HEALTH CARE NHS TRUST,Y63,QOQ,SCARBOROUGH GENERAL HOSPITAL,WOODLANDS DRIVE,,SCARBOROUGH,,YO12 6QL,19920401,20120630,,,,,,01723 368111,,,,1,,D,,,,54.28171,-0.43471
RCD,HARROGATE AND DISTRICT NHS FOUNDATION TRUST,Y63,QOQ,HARROGATE DISTRICT HOSPITAL,LANCASTER PARK ROAD,,HARROGATE,,HG2 7SX,19920401,,,,,,,01423 885959,,,,1,,D,,,,53.99381,-1.51757
RCF,AIREDALE NHS FOUNDATION TRUST,Y63,QWO,AIREDALE GENERAL HOSPITAL,SKIPTON ROAD,STEETON,KEIGHLEY,,BD20 6TD,19920401,,,,,,,01535 652511,,,,1,,D,,,,53.89796,-1.96273
RCS,NOTTINGHAM CITY HOSPITAL NHS TRUST,Y60,QT1,HUCKNALL ROAD,,,NOTTINGHAM,,NG5 1PB,19920401,20060331,,,,,,0115 969 1169,,,,1,,E,,,,52.991,-1.158
RCU,SHEFFIELD CHILDREN'S NHS FOUNDATION TRUST,Y63,QF7,WESTERN BANK,,,SHEFFIELD,,S10 2TH,19920401,,,,,,,0114 271 7000,,,,1,,D,,,,53.38055,-1.49063
RCX,"THE QUEEN ELIZABETH HOSPITAL, KING'S LYNN, NHS FOUNDATION TRUST",Y61,QMM,QUEEN ELIZABETH HOSPITAL,GAYTON ROAD,,KING'S LYNN,,PE30 4ET,19920401,,,,,,,01553 613613,,,,1,,G,,,,52.75678,0.447
RD1,ROYAL UNITED HOSPITALS BATH NHS FOUNDATION TRUST,Y58,QOX,COMBE PARK,,,BATH,,BA1 3NG,19920401,,,,,,,01225 428331,,,,1,,K,,,,51.39166,-2.39122
RD3,POOLE HOSPITAL NHS FOUNDATION TRUST,Y58,QVV,LONGFLEET ROAD,,,POOLE,,BH15 2JB,19920401,20200930,,,,,,01202 665511,,,,1,,K,,,,50.72198,-1.97311
RD7,HEATHERWOOD AND WEXHAM PARK HOSPITALS NHS FOUNDATION TRUST,Y59,QNQ,WEXHAM PARK HOSPITAL,WEXHAM STREET,WEXHAM,SLOUGH,,SL2 4HL,19920401,20140930,,,,,,01753 633000,,,,1,,J,,,,51.53201,-0.57399
RD8,MILTON KEYNES UNIVERSITY HOSPITAL NHS FOUNDATION TRUST,Y61,QHG,STANDING WAY,EAGLESTONE,,MILTON KEYNES,,MK6 5LD,19920401,,,,,,,01908 660033,,,,1,,J,,,,52.02638,-0.7358
RDD,BASILDON AND THURROCK UNIVERSITY HOSPITALS NHS FOUNDATION TRUST,Y61,QH8,BASILDON HOSPITAL,NETHERMAYNE,,BASILDON,,SS16 5NL,19920401,20200331,,,,,,01268 524900,,,,1,,G,,,,51.55769,0.45056
RDE,EAST SUFFOLK AND NORTH ESSEX NHS FOUNDATION TRUST,Y61,QJG,COLCHESTER DIST GENERAL HOSPITAL,TURNER ROAD,,COLCHESTER,,CO4 5JL,19920401,,,,,,,01206 747474,,,,1,,G,,,,51.91017,0.89918
RDR,SUSSEX COMMUNITY NHS FOUNDATION TRUST,Y59,QNX,BRIGHTON GENERAL HOSPITAL,ELM GROVE,,BRIGHTON,,BN2 3EW,19920401,,,,,,,01273 696011,,,,1,,J,,,,50.83118,-0.1145
RDU,FRIMLEY HEALTH NHS FOUNDATION TRUST,Y59,QNQ,PORTSMOUTH ROAD,FRIMLEY,,CAMBERLEY,,GU16 7UJ,19920401,,,,,,,01276 604604,,,,1,,J,,,,51.31967,-0.74203
RDY,DORSET HEALTHCARE UNIVERSITY NHS FOUNDATION TRUST,Y58,QVV,DORSET HEALTHCARE HQ,2 NUFFIELD ROAD,,POOLE,,BH17 0RB,19920401,,,,,,,01202 277000,,,,1,,K,,,,50.74006,-1.97803
RDZ,THE ROYAL BOURNEMOUTH AND CHRISTCHURCH HOSPITALS NHS FOUNDATION TRUST,Y58,QVV,ROYAL BOURNEMOUTH GENERAL HOSPITAL,CASTLE LANE EAST,,BOURNEMOUTH,,BH7 7DW,19920401,20200930,,,,,,01202 303626,,,,1,,K,,,,50.74747,-1.82051
RE9,SOUTH TYNESIDE NHS FOUNDATION TRUST,Y63,QHM,SOUTH TYNESIDE DISTRICT HOSPITAL,HARTON LANE,,SOUTH SHIELDS,,NE34 0PL,19930401,20190331,,,,,,0191 454 8888,,,,1,,A,,,,54.97187,-1.42993
REF,ROYAL CORNWALL HOSPITALS NHS TRUST,Y58,QT6,ROYAL CORNWALL HOSPITAL,TRELISKE,,TRURO,,TR1 3LJ,19920401,,,,,,,01872 250000,,,,1,,K,,,,50.26669,-5.09145
REM,LIVERPOOL UNIVERSITY HOSPITALS NHS FOUNDATION TRUST,Y62,QYG,ROYAL LIVERPOOL UNIVERSITY HOSPITAL,PRESCOT STREET,,LIVERPOOL,,L7 8XP,19920401,,,,,,,0151 706 2000,,,,1,,B,,,,53.40951,-2.96481
REN,THE CLATTERBRIDGE CANCER CENTRE NHS FOUNDATION TRUST,Y62,QYG,CLATTERBRIDGE HOSPITAL,CLATTERBRIDGE ROAD,BEBINGTON,WIRRAL,,CH63 4JY,19920401,,,,,,,0151 556 5000,,,,1,,B,,,,53.33288,-3.02414
REP,LIVERPOOL WOMEN'S NHS FOUNDATION TRUST,Y62,QYG,LIVERPOOL WOMENS HOSPITAL,CROWN STREET,,LIVERPOOL,,L8 7SS,19920401,,,,,,,0151 708 9988,,,,1,,B,,,,53.39846,-2.95998
RET,THE WALTON CENTRE NHS FOUNDATION TRUST,Y62,QYG,LOWER LANE,,,LIVERPOOL,,L9 7LJ,19920401,,,,,,,0151 525 3611,,,,1,,B,,,,53.46649,-2.93093
RF4,"BARKING, HAVERING AND REDBRIDGE UNIVERSITY HOSPITALS NHS TRUST",Y56,QMF,QUEENS HOSPITAL,ROM VALLEY WAY,,ROMFORD,,RM7 0AG,20010401,,,,,,,0330 400 4333,,,,1,,H,,,,51.56862,0.17903
RFF,BARNSLEY HOSPITAL NHS FOUNDATION TRUST,Y63,QF7,GAWBER ROAD,,,BARNSLEY,,S75 2EP,19930401,,,,,,,01226 730000,,,,1,,D,,,,53.559,-1.499
RFR,THE ROTHERHAM NHS FOUNDATION TRUST,Y63,QF7,MOORGATE ROAD,,,ROTHERHAM,,S60 2UD,19930401,,,,,,,01709 820000,,,,1,,D,,,,53.41397,-1.34288
RFS,CHESTERFIELD ROYAL HOSPITAL NHS FOUNDATION TRUST,Y60,QJ2,CHESTERFIELD ROAD,CALOW,,CHESTERFIELD,,S44 5BL,19930401,,,,,,,01246 277271,,,,1,,E,,,,53.23622,-1.40008
RFW,WEST MIDDLESEX UNIVERSITY HOSPITAL NHS TRUST,Y56,QRV,TWICKENHAM ROAD,,,ISLEWORTH,,TW7 6AF,19930401,20150831,,,,,,020 8560 2121,,,,1,,H,,,,51.47365,-0.32443
RGC,WHIPPS CROSS UNIVERSITY HOSPITAL NHS TRUST,Y56,QMF,WHIPPS CROSS HOSPITAL,WHIPPS CROSS ROAD,,LONDON,,E11 1NR,20010401,20120331,,,,,,020 8539 5522,,,,1,,H,,,,51.57883,0.00264
RGD,LEEDS AND YORK PARTNERSHIP NHS FOUNDATION TRUST,Y63,QWO,ST. MARYS HOUSE,ST. MARYS ROAD,,LEEDS,,LS7 3JX,19930401,,,,,,,0113 8555000,,,,1,,D,,,,53.82104,-1.53496
RGM,ROYAL PAPWORTH HOSPITAL NHS FOUNDATION TRUST,Y61,QUE,PAPWORTH ROAD,CAMBRIDGE BIOMEDICAL CAMPUS,,CAMBRIDGE,,CB2 0AY,19930401,,,,,,,01223 638000,,,,1,,G,,,,52.174,0.136
RGN,NORTH WEST ANGLIA NHS FOUNDATION TRUST,Y61,QUE,PETERBOROUGH CITY HOSPITAL,BRETTON GATE,BRETTON,PETERBOROUGH,,PE3 9GZ,19930401,,,,,,,01733 874000,,,,1,,G,,,,52.58392,-0.27939
RGP,JAMES PAGET UNIVERSITY HOSPITALS NHS FOUNDATION TRUST,Y61,QMM,LOWESTOFT ROAD,GORLESTON,,GREAT YARMOUTH,,NR31 6LA,19930401,,,,,,,01493 452452,,,,1,,G,,,,52.56167,1.71798
RGQ,IPSWICH HOSPITAL NHS TRUST,Y61,QJG,HEATH ROAD,,,IPSWICH,,IP4 5PD,19930401,20180630,,,,,,01473 712233,,,,1,,G,,,,52.05685,1.19792
RGR,WEST SUFFOLK NHS FOUNDATION TRUST,Y61,QJG,WEST SUFFOLK HOSPITAL,HARDWICK LANE,,BURY ST. EDMUNDS,,IP33 2QZ,19930401,,,,,,,01284 713000,,,,1,,G,,,,52.23166,0.70918
RGT,CAMBRIDGE UNIVERSITY HOSPITALS NHS FOUNDATION TRUST,Y61,QUE,CAMBRIDGE BIOMEDICAL CAMPUS,HILLS ROAD,,CAMBRIDGE,,CB2 0QQ,19930401,,,,,,,01223 245151,,,,1,,G,,,,52.17374,0.13911
RGZ,QUEEN MARY'S SIDCUP NHS TRUST,Y56,QKK,QUEEN MARY'S HOSPITAL,FROGNAL AVENUE,,SIDCUP,,DA14 6LT,19930401,20090331,,,,,,020 8302 2678,,,,1,,H,,,,51.41904,0.10169
RH5,SOMERSET NHS FOUNDATION TRUST,Y58,QSL,TRUST MANAGEMENT,LYDEARD HOUSE,MUSGROVE PARK HOSPITAL,TAUNTON,,TA1 5DA,19930401,,,,,,,01278 432000,,,,1,,K,,,,51.012,-3.122
RH8,ROYAL DEVON UNIVERSITY HEALTHCARE NHS FOUNDATION TRUST,Y58,QJK,ROYAL DEVON UNIVERSITY NHS FT,BARRACK ROAD,,EXETER,,EX2 5DW,19930401,,,,,,,01392 411611,,,,1,,K,,,,50.71671,-3.50668
RHA,NOTTINGHAMSHIRE HEALTHCARE NHS FOUNDATION TRUST,Y60,QT1,"THE RESOURCE, TRUST HQ",DUNCAN MACMILLAN HOUSE,PORCHESTER ROAD,NOTTINGHAM,,NG3 6AA,20010401,,,,,,,0115 969 1300,,,,1,,E,,,,52.97927,-1.12644
RHM,UNIVERSITY HOSPITAL SOUTHAMPTON NHS FOUNDATION TRUST,Y59,QRL,SOUTHAMPTON GENERAL HOSPITAL,TREMONA ROAD,,SOUTHAMPTON,,SO16 6YD,19930401,,,,,,,023 8077 7222,,,,1,,J,,,,50.93302,-1.4351
RHQ,SHEFFIELD TEACHING HOSPITALS NHS FOUNDATION TRUST,Y63,QF7,NORTHERN GENERAL HOSPITAL,HERRIES ROAD,,SHEFFIELD,,S5 7AU,20010401,,,,,,,0114 243 4343,,,,1,,D,,,,53.40975,-1.45604
RHU,PORTSMOUTH HOSPITALS UNIVERSITY NHS TRUST,Y59,QRL,QUEEN ALEXANDRA HOSPITAL,SOUTHWICK HILL ROAD,COSHAM,PORTSMOUTH,,PO6 3LY,19930401,,,,,,,023 9228 6000,,,,1,,J,,,,50.85023,-1.06993
RHW,ROYAL BERKSHIRE NHS FOUNDATION TRUST,Y59,QU9,ROYAL BERKSHIRE HOSPITAL,LONDON ROAD,,READING,,RG1 5AN,19930401,,,,,,,0118 322 5111,,,,1,,J,,,,51.45102,-0.95933
RHX,OXFORDSHIRE LEARNING DISABILITY NHS TRUST,Y59,QU9,SLADE HOUSE,HORSPATH DRIFTWAY,HEADINGTON,OXFORD,,OX3 7JH,19930401,20121101,,,,,,01865 747455,,,,1,,J,,,,51.74345,-1.19868
RJ1,GUY'S AND ST THOMAS' NHS FOUNDATION TRUST,Y56,QKK,ST THOMAS' HOSPITAL,WESTMINSTER BRIDGE ROAD,,LONDON,,SE1 7EH,19930401,,,,,,,020 7188 7188,,,,1,,H,,,,51.49791,-0.11891
RJ2,LEWISHAM AND GREENWICH NHS TRUST,Y56,QKK,UNIVERSITY HOSPITAL LEWISHAM,LEWISHAM HIGH STREET,,LONDON,,SE13 6LH,19930401,,,,,,,020 8333 3000,,,,1,,H,,,,51.45433,-0.01705
RJ5,ST MARY'S NHS TRUST,Y56,QRV,ACROW BUILDING,PRAED STREET,,LONDON,,W2 1NY,19930401,20070930,,,,,,020 7886 6666,,,,1,,H,,,,51.51697,-0.17357
RJ6,CROYDON HEALTH SERVICES NHS TRUST,Y56,QWE,CROYDON UNIVERSITY HOSPITAL,530 LONDON ROAD,,THORNTON HEATH,,CR7 7YE,19930401,,,,,,,020 8401 3000,,,,1,,H,,,,51.38913,-0.10878
RJ7,ST GEORGE'S UNIVERSITY HOSPITALS NHS FOUNDATION TRUST,Y56,QWE,ST GEORGE'S HOSPITAL,BLACKSHAW ROAD,TOOTING,LONDON,,SW17 0QT,19930401,,,,,,,020 8672 1255,,,,1,,H,,,,51.42673,-0.17575
RJ8,CORNWALL PARTNERSHIP NHS FOUNDATION TRUST,Y58,QT6,CAREW HOUSE,BEACON TECHNOLOGY PARK,DUNMERE ROAD,BODMIN,,PL31 2QN,19930401,,,,,,,01208 834600,,,,1,,K,,,,50.47189,-4.74163
RJC,SOUTH WARWICKSHIRE UNIVERSITY NHS FOUNDATION TRUST,Y60,QWU,WARWICK HOSPITAL,LAKIN ROAD,,WARWICK,,CV34 5BW,19930401,,,,,,,01926 495321,,,,1,,F,,,,52.28997,-1.5832
RJD,MID STAFFORDSHIRE NHS FOUNDATION TRUST,Y60,QNC,STAFFORD HOSPITAL,WESTON ROAD,,STAFFORD,,ST16 3SA,19930401,20171031,,,,,,01785 257731,,,,1,,F,,,,52.81132,-2.09774
RJE,UNIVERSITY HOSPITALS OF NORTH MIDLANDS NHS TRUST,Y60,QNC,NEWCASTLE ROAD,,,STOKE-ON-TRENT,,ST4 6QG,19930401,,,,,,,01782 715444,,,,1,,F,,,,53.003,-2.212
RJF,BURTON HOSPITALS NHS FOUNDATION TRUST,Y60,QNC,QUEEN'S HOSPITAL,BELVEDERE ROAD,,BURTON-ON-TRENT,,DE13 0RB,19930401,20180630,,,,,,01283 566333,,,,1,,F,,,,52.81778,-1.65638
RJL,NORTHERN LINCOLNSHIRE AND GOOLE NHS FOUNDATION TRUST,Y63,QOQ,DIANA PRINCESS OF WALES HOSPITAL,SCARTHO ROAD,,GRIMSBY,,DN33 2BA,20010401,,,,,,,01472 874111,,,,1,,D,,,,53.54487,-0.09621
RJN,EAST CHESHIRE NHS TRUST,Y62,QYG,MACCLESFIELD DISTRICT HOSPITAL,VICTORIA ROAD,,MACCLESFIELD,,SK10 3BL,19930401,,,,,,,01625 661449,,,,1,,B,,,,53.26226,-2.14107
RJR,COUNTESS OF CHESTER HOSPITAL NHS FOUNDATION TRUST,Y62,QYG,COUNTESS OF CHESTER HEALTH PARK,LIVERPOOL ROAD,,CHESTER,,CH2 1UL,19930401,,,,,,,01244 365000,,,,1,,B,,,,53.2088,-2.89788
RJX,CALDERSTONES PARTNERSHIP NHS FOUNDATION TRUST,Y62,QE1,MITTON ROAD,,WHALLEY,CLITHEROE,,BB7 9PE,19930401,20160630,,,,,,01253 822121,,,,1,,B,,,,53.8297,-2.42367
RJZ,KING'S COLLEGE HOSPITAL NHS FOUNDATION TRUST,Y56,QKK,DENMARK HILL,,,LONDON,,SE5 9RS,19930401,,,,,,,020 3299 9000,,,,1,,H,,,,51.46808,-0.09392
RK5,SHERWOOD FOREST HOSPITALS NHS FOUNDATION TRUST,Y60,QT1,KINGS MILL HOSPITAL,MANSFIELD ROAD,,SUTTON-IN-ASHFIELD,,NG17 4JL,19940401,,,,,,,01623 622515,,,,1,,E,,,,53.13434,-1.23228
RK9,UNIVERSITY HOSPITALS PLYMOUTH NHS TRUST,Y58,QJK,DERRIFORD HOSPITAL,DERRIFORD ROAD,DERRIFORD,PLYMOUTH,,PL6 8DH,19940401,,,,,,,01752 202082,,,,1,,K,,,,50.41672,-4.11368
RKB,UNIVERSITY HOSPITALS COVENTRY AND WARWICKSHIRE NHS TRUST,Y60,QWU,WALSGRAVE GENERAL HOSPITAL,CLIFFORD BRIDGE ROAD,,COVENTRY,,CV2 2DX,19930401,,,,,,,024 7696 4000,,,,1,,F,,,,52.42121,-1.4384
RKE,WHITTINGTON HEALTH NHS TRUST,Y56,QMJ,THE WHITTINGTON HOSPITAL,MAGDALA AVENUE,,LONDON,,N19 5NF,19930401,,,,,,,020 7272 3070,,,,1,,H,,,,51.56631,-0.13864
RKL,WEST LONDON NHS TRUST,Y56,QRV,1 ARMSTRONG WAY,,,SOUTHALL,,UB2 4SD,20010401,,,,,,,020 8354 8354,,,,1,,H,,,,51.506,-0.356
RL1,THE ROBERT JONES AND AGNES HUNT ORTHOPAEDIC HOSPITAL NHS FOUNDATION TRUST,Y60,QOC,GOBOWEN,,,OSWESTRY,,SY10 7AG,19940401,,,,,,,01691 404000,,,,1,,F,,,,52.88423,-3.03269
RL4,THE ROYAL WOLVERHAMPTON NHS TRUST,Y60,QUA,NEW CROSS HOSPITAL,WOLVERHAMPTON ROAD,HEATH TOWN,WOLVERHAMPTON,,WV10 0QP,19940401,,,,,,,01902 307999,,,,1,,F,,,,52.59972,-2.09556
RLN,CITY HOSPITALS SUNDERLAND NHS FOUNDATION TRUST,Y63,QHM,SUNDERLAND ROYAL HOSPITAL,KAYLL ROAD,,SUNDERLAND,,SR4 7TP,19940401,20190331,,,,,,0191 565 6256,,,,1,,A,,,,54.902,-1.41
RLQ,WYE VALLEY NHS TRUST,Y60,QGH,COUNTY HOSPITAL,27 UNION WALK,,HEREFORD,,HR1 2ER,19940401,,,,,,,01432 355444,,,,1,,F,,,,52.05694,-2.70571
RLT,GEORGE ELIOT HOSPITAL NHS TRUST,Y60,QWU,LEWES HOUSE,COLLEGE STREET,,NUNEATON,,CV10 7DJ,19940401,,,,,,,024 7635 1351,,,,1,,F,,,,52.51258,-1.47844
RLU,BIRMINGHAM WOMEN'S NHS FOUNDATION TRUST,Y60,QHL,BIRMINGHAM WOMENS HOSPITAL,METCHLEY PARK ROAD,,BIRMINGHAM,,B15 2TG,19940401,20170131,,,,,,0121 472 1377,,,,1,,F,,,,52.45324,-1.9429
RLY,NORTH STAFFORDSHIRE COMBINED HEALTHCARE NHS TRUST,Y60,QNC,LAWTON HOUSE,BELLRINGER ROAD,TRENTHAM,STOKE-ON-TRENT,,ST4 8HH,19940401,,,,,,,0300 123 1535,,,,1,,F,,,,52.968,-2.168
RM1,NORFOLK AND NORWICH UNIVERSITY HOSPITALS NHS FOUNDATION TRUST,Y61,QMM,COLNEY LANE,COLNEY,,NORWICH,,NR4 7UY,19940401,,,,,,,01603 286286,,,,1,,G,,,,52.61809,1.22107
RM2,UNIVERSITY HOSPITAL OF SOUTH MANCHESTER NHS FOUNDATION TRUST,Y62,QOP,WYTHENSHAWE HOSPITAL,SOUTHMOOR ROAD,WYTHENSHAWE,MANCHESTER,,M23 9LT,19940401,20170930,,,,,,0161 998 7070,,,,1,,B,,,,53.38792,-2.29319
RM3,NORTHERN CARE ALLIANCE NHS FOUNDATION TRUST,Y62,QOP,SALFORD ROYAL,STOTT LANE,,SALFORD,,M6 8HD,19940401,,,,,,,0161 789 7373,,,,1,,B,,,,53.48754,-2.32342
RM4,TRAFFORD HEALTHCARE NHS TRUST,Y62,QOP,TRAFFORD GENERAL HOSPITAL,MOORSIDE ROAD,URMSTON,MANCHESTER,,M41 5SL,19940401,20120331,,,,,,0161 968 3700,,,,1,,B,,,,53.45406,-2.37068
RMC,BOLTON NHS FOUNDATION TRUST,Y62,QOP,THE ROYAL BOLTON HOSPITAL,MINERVA ROAD,FARNWORTH,BOLTON,,BL4 0JR,19940401,,,,,,,01204 390390,,,,1,,B,,,,53.55397,-2.42989
RMP,TAMESIDE AND GLOSSOP INTEGRATED CARE NHS FOUNDATION TRUST,Y62,QOP,TAMESIDE GENERAL HOSPITAL,FOUNTAIN STREET,,ASHTON-UNDER-LYNE,,OL6 9RW,19940401,,,,,,,0161 922 6000,,,,1,,B,,,,53.49153,-2.07143
RMY,NORFOLK AND SUFFOLK NHS FOUNDATION TRUST,Y61,QMM,COUNTY HALL,MARTINEAU LANE,,NORWICH,,NR1 2DH,19940401,,,,,,,01603 421421,,,,1,,G,,,,52.61518,1.30766
RN1,WINCHESTER AND EASTLEIGH HEALTHCARE NHS TRUST,Y59,QRL,ROYAL HAMPSHIRE COUNTY HOSPITAL,ROMSEY ROAD,,WINCHESTER,,SO22 5DG,19940401,20120109,,,,,,01962 863535,,,,1,,J,,,,51.06171,-1.32917
RN3,GREAT WESTERN HOSPITALS NHS FOUNDATION TRUST,Y58,QOX,GREAT WESTERN HOSPITAL,MARLBOROUGH ROAD,,SWINDON,,SN3 6BB,19940401,,,,,,,01793 604020,,,,1,,K,,,,51.53853,-1.7272
RN5,HAMPSHIRE HOSPITALS NHS FOUNDATION TRUST,Y59,QRL,BASINGSTOKE AND NORTH HAMPSHIRE HOS,ALDERMASTON ROAD,,BASINGSTOKE,,RG24 9NA,19940401,,,,,,,01256 473202,,,,1,,J,,,,51.28061,-1.10988
RN7,DARTFORD AND GRAVESHAM NHS TRUST,Y59,QKS,DARENT VALLEY HOSPITAL,DARENTH WOOD ROAD,,DARTFORD,,DA2 8DA,19940401,,,,,,,01322 428100,,,,1,,J,,,,51.43495,0.25867
RNA,THE DUDLEY GROUP NHS FOUNDATION TRUST,Y60,QUA,RUSSELLS HALL HOSPITAL,PENSNETT ROAD,,DUDLEY,,DY1 2HQ,19940401,,,,,,,01384 456111,,,,1,,F,,,,52.50294,-2.11852
RNH,NEWHAM UNIVERSITY HOSPITAL NHS TRUST,Y56,QMF,NEWHAM GENERAL HOSPITAL,GLEN ROAD,,LONDON,,E13 8SL,19940401,20120331,,,,,,0207 476 4000,,,,1,,H,,,,51.52278,0.03472
RNJ,BARTS AND THE LONDON NHS TRUST,Y56,QMF,"TRUST OFFICES, WHITECHAPEL",THE ROYAL LONDON HOSPITAL,WHITECHAPEL,LONDON,,E1 1BB,19940401,20120331,,,,,,020 7377 7000,,,,1,,H,,,,51.51902,-0.05811
RNK,TAVISTOCK AND PORTMAN NHS FOUNDATION TRUST,Y56,QMJ,THE TAVISTOCK CENTRE,120 BELSIZE LANE,,LONDON,,NW3 5BA,19940401,,,,,,,020 7435 7111,,,,1,,H,,,,51.5469,-0.17544
RNL,NORTH CUMBRIA UNIVERSITY HOSPITALS NHS TRUST,Y63,QHM,CUMBERLAND INFIRMARY,NEWTOWN ROAD,,CARLISLE,,CA2 7HY,20010401,20190930,,,,,,01946 693181,,,,1,,B,,,,54.897,-2.958
RNN,NORTH CUMBRIA INTEGRATED CARE NHS FOUNDATION TRUST,Y63,QHM,PILLARS BUILDING,CUMBERLAND INFIRMARY,INFIRMARY STREET,CARLISLE,,CA2 7HY,20010401,,,,,,,01228 602000,,,,1,,B,,,,54.897,-2.958
RNQ,KETTERING GENERAL HOSPITAL NHS FOUNDATION TRUST,Y60,QPM,ROTHWELL ROAD,,,KETTERING,,NN16 8UZ,19940401,,,,,,,01536 492000,,,,1,,E,,,,52.40278,-0.74129
RNS,NORTHAMPTON GENERAL HOSPITAL NHS TRUST,Y60,QPM,CLIFTONVILLE,,,NORTHAMPTON,,NN1 5BD,19940401,,,,,,,01604 634700,,,,1,,E,,,,52.23605,-0.88384
RNU,OXFORD HEALTH NHS FOUNDATION TRUST,Y59,QU9,LITTLEMORE MENTAL HEALTH CENTRE,SANDFORD ROAD,LITTLEMORE,OXFORD,,OX4 4XN,19940401,,,,,,,01865 901000,,,,1,,J,,,,51.717,-1.229
RNZ,SALISBURY NHS FOUNDATION TRUST,Y58,QOX,SALISBURY DISTRICT HOSPITAL,ODSTOCK ROAD,,SALISBURY,,SP2 8BJ,19940401,,,,,,,01722 336262,,,,1,,K,,,,51.04395,-1.78982
RP1,NORTHAMPTONSHIRE HEALTHCARE NHS FOUNDATION TRUST,Y60,QPM,ST MARYS HOSPITAL,77 LONDON ROAD,,KETTERING,,NN15 7PW,20010401,,,,,,,01536 410141,,,,1,,E,,,,52.3941,-0.7222
RP4,GREAT ORMOND STREET HOSPITAL FOR CHILDREN NHS FOUNDATION TRUST,Y56,QMJ,GREAT ORMOND STREET,,,LONDON,,WC1N 3JH,19940401,,,,,,,020 7405 9200,,,,1,,H,,,,51.52221,-0.11992
RP5,DONCASTER AND BASSETLAW TEACHING HOSPITALS NHS FOUNDATION TRUST,Y63,QF7,DONCASTER ROYAL INFIRMARY,ARMTHORPE ROAD,,DONCASTER,,DN2 5LT,20010401,,,,,,,01302 366666,,,,1,,D,,,,53.53074,-1.10926
RP6,MOORFIELDS EYE HOSPITAL NHS FOUNDATION TRUST,Y56,QMJ,162 CITY ROAD,,,LONDON,,EC1V 2PD,19940401,,,,,,,020 7253 3411,,,,1,,H,,,,51.52725,-0.08989
RP7,LINCOLNSHIRE PARTNERSHIP NHS FOUNDATION TRUST,Y60,QJM,ST GEORGE'S,LONG LEYS ROAD,,LINCOLN,,LN1 1FS,20010401,,,,,,,01522 309200,,,,1,,E,,,,53.24403,-0.55691
RPA,MEDWAY NHS FOUNDATION TRUST,Y59,QKS,MEDWAY MARITIME HOSPITAL,WINDMILL ROAD,,GILLINGHAM,,ME7 5NY,19940401,,,,,,,01634 830000,,,,1,,J,,,,51.37986,0.54206
RPC,QUEEN VICTORIA HOSPITAL NHS FOUNDATION TRUST,Y59,QNX,HOLTYE ROAD,,,EAST GRINSTEAD,,RH19 3DZ,19940401,,,,,,,01342 414000,,,,1,,J,,,,51.13511,-0.0029
RPG,OXLEAS NHS FOUNDATION TRUST,Y59,QKS,PINEWOOD HOUSE,PINEWOOD PLACE,,DARTFORD,,DA2 7WG,19940401,,,,,,,01322 625700,,,,1,,J,,,,51.4348,0.17474
RPL,WORTHING AND SOUTHLANDS HOSPITALS NHS TRUST,Y59,QNX,WORTHING HOSPITAL,LYNDHURST ROAD,,WORTHING,,BN11 2DH,19940401,20090331,,,,,,01903 205111,,,,1,,J,,,,50.81668,-0.3634
RPR,ROYAL WEST SUSSEX NHS TRUST,Y59,QNX,ST RICHARD'S HOSPITAL,SPITALFIELD LANE,,CHICHESTER,,PO19 6SE,19940401,20090331,,,,,,01243 788122,,,,1,,J,,,,50.84356,-0.76803
RPY,THE ROYAL MARSDEN NHS FOUNDATION TRUST,Y56,QRV,FULHAM ROAD,,,LONDON,,SW3 6JJ,19940401,,,,,,,020 7352 8171,,,,1,,H,,,,51.49056,-0.17257
RQ3,BIRMINGHAM WOMEN'S AND CHILDREN'S NHS FOUNDATION TRUST,Y60,QHL,STEELHOUSE LANE,,,BIRMINGHAM,,B4 6NH,19950401,,,,,,,0121 333 9999,,,,1,,F,,,,52.48478,-1.89381
RQ6,ROYAL LIVERPOOL AND BROADGREEN UNIVERSITY HOSPITALS NHS TRUST,Y62,QYG,ROYAL LIVERPOOL UNIVERSITY HOSPITAL,PRESCOT STREET,,LIVERPOOL,,L7 8XP,19950401,20190930,,,,,,0151 706 2000,,,,1,,B,,,,53.40951,-2.96481
RQ8,MID ESSEX HOSPITAL SERVICES NHS TRUST,Y61,QH8,BROOMFIELD HOSPITAL,COURT ROAD,,CHELMSFORD,,CM1 7ET,19950401,20200331,,,,,,01245 362000,,,,1,,G,,,,51.77458,0.46599
RQF,VELINDRE NHS TRUST,,,UNIT 2,CHARNWOOD COURT,HEOL BILLINGSLEY,CARDIFF,,CF15 7QZ,19940401,,,,,,,029 2019 6161,,,,1,,W,,,,51.56631,-3.27836
RQM,CHELSEA AND WESTMINSTER HOSPITAL NHS FOUNDATION TRUST,Y56,QRV,CHELSEA & WESTMINSTER HOSPITAL,369 FULHAM ROAD,,LONDON,,SW10 9NH,19940401,,,,,,,020 3315 8000,,,,1,,H,,,,51.48426,-0.18164
RQN,HAMMERSMITH HOSPITALS NHS TRUST,Y56,QRV,HAMMERSMITH HOSPITAL,DU CANE ROAD,,LONDON,,W12 0HS,19940401,20070930,,,,,,020 8383 1000,,,,1,,H,,,,51.51742,-0.23472
RQQ,HINCHINGBROOKE HEALTH CARE NHS TRUST,Y61,QUE,HINCHINGBROOKE HOSPITAL,,,HUNTINGDON,,PE29 6NT,19950401,20170331,,,,,,01480 416416,,,,1,,G,,,,52.33335,-0.20268
RQW,THE PRINCESS ALEXANDRA HOSPITAL NHS TRUST,Y61,QM7,HAMSTEL ROAD,,,HARLOW,,CM20 1QX,19950401,,,,,,,01279 444455,,,,1,,G,,,,51.77153,0.08546
RQX,HOMERTON HEALTHCARE NHS FOUNDATION TRUST,Y56,QMF,HOMERTON ROW,,,LONDON,,E9 6SR,19950401,,,,,,,020 8510 5555,,,,1,,H,,,,51.55063,-0.0461
RQY,SOUTH WEST LONDON AND ST GEORGE'S MENTAL HEALTH NHS TRUST,Y56,QWE,SPRINGFIELD HOSPITAL,61 GLENBURNIE ROAD,,LONDON,,SW17 7DJ,19950401,,,,,,,020 3513 5000,,,,1,,H,,,,51.43704,-0.17154
RR1,HEART OF ENGLAND NHS FOUNDATION TRUST,Y60,QHL,BIRMINGHAM HEARTLANDS HOSPITAL,BORDESLEY GREEN EAST,,BIRMINGHAM,,B9 5ST,19960401,20180401,,,,,,0121 424 2000,,,,1,,F,,,,52.47788,-1.82753
RR7,GATESHEAD HEALTH NHS FOUNDATION TRUST,Y63,QHM,QUEEN ELIZABETH HOSPITAL,SHERIFF HILL,,GATESHEAD,,NE9 6SX,19980401,,,,,,,0191 482 0000,,,,1,,A,,,,54.93938,-1.58078
RR8,LEEDS TEACHING HOSPITALS NHS TRUST,Y63,QWO,ST. JAMES'S UNIVERSITY HOSPITAL,BECKETT STREET,,LEEDS,,LS9 7TF,19980401,,,,,,,0113 243 3144,,,,1,,D,,,,53.80687,-1.52036
RRD,NORTH ESSEX PARTNERSHIP UNIVERSITY NHS FOUNDATION TRUST,Y61,QH8,STAPLEFORD HOUSE,STAPLEFORD CLOSE,,CHELMSFORD,,CM2 0QX,20010401,20170331,,,,,,01245 546400,,,,1,,G,,,,51.72975,0.46716
RRE,MIDLANDS PARTNERSHIP UNIVERSITY NHS FOUNDATION TRUST,Y60,QNC,TRUST HEADQUARTERS,ST GEORGES HOSPITAL,CORPORATION STREET,STAFFORD,,ST16 3SR,20010401,,,,,,,0300 790 7000,,,,1,,F,,,,52.81059,-2.10927
RRF,"WRIGHTINGTON, WIGAN AND LEIGH TEACHING HOSPITALS NHS FOUNDATION TRUST",Y62,QOP,ROYAL ALBERT EDWARD INFIRMARY,WIGAN LANE,,WIGAN,,WN1 2NN,20010401,,,,,,,01942 244000,,,,1,,B,,,,53.55774,-2.62909
RRJ,THE ROYAL ORTHOPAEDIC HOSPITAL NHS FOUNDATION TRUST,Y60,QHL,THE WOODLANDS,BRISTOL ROAD SOUTH,NORTHFIELD,BIRMINGHAM,,B31 2AP,19950401,,,,,,,0121 685 4000,,,,1,,F,,,,52.42009,-1.96116
RRK,UNIVERSITY HOSPITALS BIRMINGHAM NHS FOUNDATION TRUST,Y60,QHL,QUEEN ELIZABETH HOSPITAL,MINDELSOHN WAY,EDGBASTON,BIRMINGHAM,,B15 2GW,19950401,,,,,,,0121 371 2000,,,,1,,F,,,,52.45183,-1.94256
RRP,"BARNET, ENFIELD AND HARINGEY MENTAL HEALTH NHS TRUST",Y56,QMJ,TRUST HEADQUARTERS BLOCK B2,ST ANN'S HOSPITAL,ST ANN'S ROAD,LONDON,,N15 3TH,20010401,20241031,,,,,,020 8702 3000,,,,1,,H,,,,51.58066,-0.09218
RRU,LONDON AMBULANCE SERVICE NHS TRUST,Y56,QKK,220 WATERLOO ROAD,,,LONDON,,SE1 8SD,19960401,,,,,,,020 7783 2000,,,,1,,H,,,,51.50017,-0.10903
RRV,UNIVERSITY COLLEGE LONDON HOSPITALS NHS FOUNDATION TRUST,Y56,QMJ,250 EUSTON ROAD,,,LONDON,,NW1 2PG,19960401,,,,,,,020 3456 7890,,,,1,,H,,,,51.52573,-0.1374
RT1,CAMBRIDGESHIRE AND PETERBOROUGH NHS FOUNDATION TRUST,Y61,QUE,ELIZABETH HOUSE,FULBOURN HOSPITAL,FULBOURN,CAMBRIDGE,,CB21 5EF,20020401,,,,,,,01223 219400,,,,1,,G,,,,52.18521,0.18818
RT2,PENNINE CARE NHS FOUNDATION TRUST,Y62,QOP,225 OLD STREET,,,ASHTON-UNDER-LYNE,,OL6 7SR,20020401,,,,,,,0161 716 3000,,,,1,,B,,,,53.48574,-2.09998
RT3,ROYAL BROMPTON & HAREFIELD NHS FOUNDATION TRUST,Y56,QRV,ROYAL BROMPTON HOSPITAL,SYDNEY STREET,,LONDON,,SW3 6NP,19980401,20210131,,,,,,020 7352 8121,,,,1,,H,,,,51.48974,-0.17086
RT4,WELSH AMBULANCE SERVICES NHS TRUST,,,UNIT 7,FFORDD RICHARD DAVIES,ST ASAPH BUSINESS PARK,ST. ASAPH,,LL17 0LJ,19980401,,,,,,,01745 532900,,,,1,,W,,,,53.25194,-3.47833
RT5,LEICESTERSHIRE PARTNERSHIP NHS TRUST,Y60,QK1,ROOM 100/110 PEN LLOYD BUILDING,COUNTY HALL,LEICESTER ROAD,LEICESTER,,LE3 8RA,19990401,,,,,,,0116 295 1350,,,,1,,E,,,,52.65571,-1.18801
RT6,SUFFOLK MENTAL HEALTH PARTNERSHIP NHS TRUST,Y61,QJG,SUFFOLK HOUSE,ST. CLEMENTS HOSPITAL,FOXHALL ROAD,IPSWICH,,IP3 8LU,19990401,20111231,,,,,,01473 329600,,,,1,,G,,,,52.04768,1.19014
RTD,THE NEWCASTLE UPON TYNE HOSPITALS NHS FOUNDATION TRUST,Y63,QHM,FREEMAN HOSPITAL,FREEMAN ROAD,HIGH HEATON,NEWCASTLE UPON TYNE,,NE7 7DN,19980401,,,,,,,0191 233 6161,,,,1,,A,,,,55.003,-1.593
RTE,GLOUCESTERSHIRE HOSPITALS NHS FOUNDATION TRUST,Y58,QR1,CHELTENHAM GENERAL HOSPITAL,SANDFORD ROAD,,CHELTENHAM,,GL53 7AN,20020401,,,,,,,0300 422 2222,,,,1,,K,,,,51.89212,-2.07181
RTF,NORTHUMBRIA HEALTHCARE NHS FOUNDATION TRUST,Y63,QHM,NORTH TYNESIDE GENERAL HOSPITAL,RAKE LANE,,NORTH SHIELDS,,NE29 8NH,19980401,,,,,,,0344 811 8111,,,,1,,A,,,,55.02524,-1.46734
RTG,UNIVERSITY HOSPITALS OF DERBY AND BURTON NHS FOUNDATION TRUST,Y60,QJ2,ROYAL DERBY HOSPITAL,UTTOXETER ROAD,,DERBY,,DE22 3NE,19980401,,,,,,,01332 340131,,,,1,,E,,,,52.91119,-1.51451
RTH,OXFORD UNIVERSITY HOSPITALS NHS FOUNDATION TRUST,Y59,QU9,JOHN RADCLIFFE HOSPITAL,HEADLEY WAY,HEADINGTON,OXFORD,,OX3 9DU,19980401,,,,,,,0300 304 7777,,,,1,,J,,,,51.76387,-1.21981
RTK,ASHFORD AND ST PETER'S HOSPITALS NHS FOUNDATION TRUST,Y59,QXU,ST PETERS HOSPITAL,GUILDFORD ROAD,,CHERTSEY,,KT16 0PZ,19980401,,,,,,,01932 872000,,,,1,,J,,,,51.37783,-0.52706
RTP,SURREY AND SUSSEX HEALTHCARE NHS TRUST,Y59,QXU,TRUST HEADQUARTERS,EAST SURREY HOSPITAL,CANADA AVENUE,REDHILL,,RH1 5RH,19980401,,,,,,,01737 768511,,,,1,,J,,,,51.21919,-0.16201
RTQ,GLOUCESTERSHIRE HEALTH AND CARE NHS FOUNDATION TRUST,Y58,QR1,EDWARD JENNER COURT,1010 PIONEER AVENUE,GLOUCESTER BUSINESS PARK,GLOUCESTER,,GL3 4AW,20020401,,,,,,,0300 4218 100,,,,1,,K,,,,51.844,-2.177
RTR,SOUTH TEES HOSPITALS NHS FOUNDATION TRUST,Y63,QHM,JAMES COOK UNIVERSITY HOSPITAL,MARTON ROAD,,MIDDLESBROUGH,,TS4 3BW,20020401,,,,,,,01642 850850,,,,1,,A,,,,54.55175,-1.21481
RTV,NORTH WEST BOROUGHS HEALTHCARE NHS FOUNDATION TRUST,Y62,QYG,HOLLINS PARK HOUSE,HOLLINS PARK HOSPITAL,HOLLINS LANE,WARRINGTON,,WA2 8WA,20020401,20210531,,,,,,01925 664000,,,,1,,B,,,,53.42952,-2.60686
RTX,UNIVERSITY HOSPITALS OF MORECAMBE BAY NHS FOUNDATION TRUST,Y62,QE1,WESTMORLAND GENERAL HOSPITAL,BURTON ROAD,,KENDAL,,LA9 7RG,19980401,,,,,,,01539 732288,,,,1,,B,,,,54.3067,-2.73255
RV3,CENTRAL AND NORTH WEST LONDON NHS FOUNDATION TRUST,Y56,QMJ,TRUST HEADQUARTERS,350 EUSTON ROAD,REGENTS PLACE,LONDON,,NW1 3AX,19990401,,,,,,,020 3317 5833,,,,1,,H,,,,51.52439,-0.14212
RV5,SOUTH LONDON AND MAUDSLEY NHS FOUNDATION TRUST,Y56,QKK,BETHLEM ROYAL HOSPITAL,MONKS ORCHARD ROAD,,BECKENHAM,,BR3 3BX,19990401,,,,,,,020 3228 6000,,,,1,,H,,,,51.37778,-0.02923
RV7,BEDFORDSHIRE AND LUTON MENTAL HEALTH AND SOCIAL CARE PARTNERSHIP NHS TRUST,Y61,QHG,CHARTER HOUSE,ALMA STREET,,LUTON,,LU1 2PL,19990401,20100331,,,,,,01582 708999,,,,1,,G,,,,51.88042,-0.41944
RV8,NORTH WEST LONDON HOSPITALS NHS TRUST,Y56,QRV,NORTHWICK PARK HOSPITAL,WATFORD ROAD,,HARROW,,HA1 3UJ,19990401,20140930,,,,,,0208 864 3232,,,,1,,H,,,,51.57541,-0.32204
RV9,HUMBER TEACHING NHS FOUNDATION TRUST,Y63,QOQ,TRUST HQ BLOCK A WILLERBY HILL,BEVERLEY ROAD,WILLERBY,HULL,,HU10 6ED,19991001,,,,,,,01482 301700,,,,1,,D,,,,53.77197,-0.44448
RVJ,NORTH BRISTOL NHS TRUST,Y58,QUY,SOUTHMEAD HOSPITAL,SOUTHMEAD ROAD,WESTBURY-ON-TRYM,BRISTOL,,BS10 5NB,19990401,,,,,,,0117 950 5050,,,,1,,K,,,,51.4948,-2.59102
RVL,BARNET AND CHASE FARM HOSPITALS NHS TRUST,Y56,QMJ,BARNET GENERAL HOSPITAL,WELLHOUSE LANE,,BARNET,,EN5 3DJ,19990401,20140701,,,,,,020 8366 6600,,,,1,,H,,,,51.65073,-0.21415
RVN,AVON AND WILTSHIRE MENTAL HEALTH PARTNERSHIP NHS TRUST,Y58,QOX,BATH NHS HOUSE,NEWBRIDGE HILL,,BATH,,BA1 3QE,19990401,,,,,,,01225 325680,,,,1,,K,,,,51.3886,-2.39231
RVR,EPSOM AND ST HELIER UNIVERSITY HOSPITALS NHS TRUST,Y56,QWE,ST HELIER HOSPITAL,WRYTHE LANE,,CARSHALTON,,SM5 1AA,19990401,,,,,,,020 8296 2000,,,,1,,H,,,,51.38031,-0.18364
RVV,EAST KENT HOSPITALS UNIVERSITY NHS FOUNDATION TRUST,Y59,QKS,KENT & CANTERBURY HOSPITAL,ETHELBERT ROAD,,CANTERBURY,,CT1 3NG,19990401,,,,,,,01227 766877,,,,1,,J,,,,51.26659,1.08708
RVW,NORTH TEES AND HARTLEPOOL NHS FOUNDATION TRUST,Y63,QHM,UNIVERSITY HOSPITAL OF HARTLEPOOL,HOLDFORTH ROAD,,HARTLEPOOL,,TS24 9AH,19990401,,,,,,,01642 617617,,,,1,,A,,,,54.70238,-1.22784
RVX,TEES AND NORTH EAST YORKSHIRE NHS TRUST,Y63,QHM,FLATTS LANE CENTRE,FLATTS LANE,NORMANBY,MIDDLESBROUGH,,TS6 0SZ,19990401,20060331,,,,,,01723 376111,,,,1,,A,,,,54.54568,-1.1468
RVY,SOUTHPORT AND ORMSKIRK HOSPITAL NHS TRUST,Y62,QYG,TOWN LANE,,,SOUTHPORT,,PR8 6PN,19990401,20230630,,,,,,01704 547471,,,,1,,B,,,,53.634,-2.979
RW1,HAMPSHIRE AND ISLE OF WIGHT HEALTHCARE NHS FOUNDATION TRUST,Y59,QRL,TATCHBURY MOUNT HOSPITAL,CALMORE,,SOUTHAMPTON,,SO40 2RZ,20010401,,,,,,,023 8087 4000,,,,1,,J,,,,50.9313,-1.53005
RW3,CENTRAL MANCHESTER UNIVERSITY HOSPITALS NHS FOUNDATION TRUST,Y62,QOP,"TRUST HEADQUARTERS, COBBETT HOUSE",MANCHESTER ROYAL INFIRMARY,OXFORD ROAD,MANCHESTER,,M13 9WL,20010401,20170930,,,,,,0161 276 1234,,,,1,,B,,,,53.46244,-2.22771
RW4,MERSEY CARE NHS FOUNDATION TRUST,Y62,QYG,V7 BUILDING,KINGS BUSINESS PARK,KINGS DRIVE,PRESCOT,,L34 1PJ,20010401,,,,,,,0151 473 0303,,,,1,,B,,,,53.424,-2.826
RW5,LANCASHIRE & SOUTH CUMBRIA NHS FOUNDATION TRUST,Y62,QE1,SCEPTRE POINT,SCEPTRE WAY,BAMBER BRIDGE,PRESTON,,PR5 6AW,20020401,,,,,,,01772 695300,,,,1,,B,,,,53.7195,-2.63863
RW6,PENNINE ACUTE HOSPITALS NHS TRUST,Y62,QOP,TRUST HEADQUARTERS,NORTH MANCHESTER GENERAL HOSPITAL,"DELAUNAYS ROAD, CRUMPSALL",MANCHESTER,,M8 5RB,20020401,20210930,,,,,,0161 624 0420,,,,1,,B,,,,53.51788,-2.22949
RW8,WEST SUSSEX HEALTH AND SOCIAL CARE NHS TRUST,Y59,QNX,TRUST HEADQUARTERS,ARUNDEL ROAD,,WORTHING,,BN13 3EP,20020401,20060331,,,,,,01903 843000,,,,1,,J,,,,50.8412,-0.41114
RW9,SOUTH OF TYNE AND WEARSIDE MENTAL HEALTH NHS TRUST,Y63,QHM,CHERRY KNOWLE HOSPITAL,RYHOPE,,SUNDERLAND,,SR2 0NB,20020401,20060331,,,,,,0191 565 6256,,,,1,,A,,,,54.86393,-1.36932
RWA,HULL UNIVERSITY TEACHING HOSPITALS NHS TRUST,Y63,QOQ,HULL ROYAL INFIRMARY,ANLABY ROAD,,HULL,,HU3 2JZ,19991001,,,,,,,01482 875875,,,,1,,D,,,,53.74411,-0.35815
RWD,UNITED LINCOLNSHIRE TEACHING HOSPITALS NHS TRUST,Y60,QJM,LINCOLN COUNTY HOSPITAL,GREETWELL ROAD,,LINCOLN,,LN2 5QY,20000401,,,,,,,01522 512512,,,,1,,E,,,,53.23357,-0.51965
RWE,UNIVERSITY HOSPITALS OF LEICESTER NHS TRUST,Y60,QK1,LEICESTER ROYAL INFIRMARY,INFIRMARY SQUARE,,LEICESTER,,LE1 5WW,20000401,,,,,,,0300 303 1573,,,,1,,E,,,,52.627,-1.136
RWF,MAIDSTONE AND TUNBRIDGE WELLS NHS TRUST,Y59,QKS,THE MAIDSTONE HOSPITAL,HERMITAGE LANE,,MAIDSTONE,,ME16 9QQ,20000401,,,,,,,01622 729000,,,,1,,J,,,,51.27366,0.48397
RWG,WEST HERTFORDSHIRE TEACHING HOSPITALS NHS TRUST,Y61,QM7,TRUST OFFICES,WATFORD GENERAL HOSPITAL,VICARAGE ROAD,WATFORD,,WD18 0HB,20000401,,,,,,,01923 244366,,,,1,,G,,,,51.64892,-0.40419
RWH,EAST AND NORTH HERTFORDSHIRE TEACHING NHS TRUST,Y61,QM7,LISTER HOSPITAL,COREYS MILL LANE,,STEVENAGE,,SG1 4AB,20000401,,,,,,,01438 314333,,,,1,,G,,,,51.92461,-0.21273
RWJ,STOCKPORT NHS FOUNDATION TRUST,Y62,QOP,STEPPING HILL HOSPITAL,POPLAR GROVE,,STOCKPORT,,SK2 7JE,20000401,,,,,,,0161 483 1010,,,,1,,B,,,,53.38379,-2.13202
RWK,EAST LONDON NHS FOUNDATION TRUST,Y56,QMF,ROBERT DOLAN HOUSE,9 ALIE STREET,,LONDON,,E1 8DE,20000401,,,,,,,020 7655 4000,,,,1,,H,,,,51.51352,-0.07271
RWN,SOUTH ESSEX PARTNERSHIP UNIVERSITY NHS FOUNDATION TRUST,Y61,QH8,"THE LODGE, RUNWELL HOSPITAL",LODGE APPROACH,RUNWELL,WICKFORD,,SS11 7XX,20000401,20170331,,,,,,01375 364650,,,,1,,G,,,,51.63503,0.54502
RWP,WORCESTERSHIRE ACUTE HOSPITALS NHS TRUST,Y60,QGH,WORCESTERSHIRE ROYAL HOSPITAL,CHARLES HASTINGS WAY,,WORCESTER,,WR5 1DD,20000401,,,,,,,01905 763333,,,,1,,F,,,,52.1912,-2.18114
RWQ,WORCESTERSHIRE MENTAL HEALTH PARTNERSHIP NHS TRUST,Y60,QGH,ISAAC MADDOX HOUSE,SHRUB HILL ROAD,,WORCESTER,,WR4 9RW,20000401,20110630,,,,,,01905 681552,,,,1,,F,,,,52.19506,-2.21301
RWR,HERTFORDSHIRE PARTNERSHIP UNIVERSITY NHS FOUNDATION TRUST,Y61,QM7,THE COLONNADES,BEACONSFIELD CLOSE,,HATFIELD,,AL10 8YE,20010401,,,,,,,01707 253800,,,,1,,G,,,,51.76699,-0.21669
RWV,DEVON PARTNERSHIP NHS TRUST,Y58,QJK,WONFORD HOUSE HOSPITAL,DRYDEN ROAD,,EXETER,,EX2 5AF,20010401,,,,,,,01392 208866,,,,1,,K,,,,50.71539,-3.5063
RWW,WARRINGTON AND HALTON TEACHING HOSPITALS NHS FOUNDATION TRUST,Y62,QYG,WARRINGTON HOSPITAL,LOVELY LANE,,WARRINGTON,,WA5 1QG,20010401,,,,,,,01925 635911,,,,1,,B,,,,53.39398,-2.61073
RWX,BERKSHIRE HEALTHCARE NHS FOUNDATION TRUST,Y59,QNQ,LONDON HOUSE,LONDON ROAD,,BRACKNELL,,RG12 2UT,20010401,,,,,,,01344 415600,,,,1,,J,,,,51.41612,-0.74069
RWY,CALDERDALE AND HUDDERSFIELD NHS FOUNDATION TRUST,Y63,QWO,TRUST HEADQUARTERS,ACRE STREET,LINDLEY,HUDDERSFIELD,,HD3 3EA,20010401,,,,,,,01484 342000,,,,1,,D,,,,53.65548,-1.81634
RX1,NOTTINGHAM UNIVERSITY HOSPITALS NHS TRUST,Y60,QT1,TRUST HEADQUARTERS,QUEENS MEDICAL CENTRE,DERBY ROAD,NOTTINGHAM,,NG7 2UH,20060401,,,,,,,0115 924 9924,,,,1,,E,,,,52.9438,-1.18596
RX2,SUSSEX PARTNERSHIP NHS FOUNDATION TRUST,Y59,QNX,TRUST HQ,SWANDEAN,ARUNDEL ROAD,WORTHING,,BN13 3EP,20060401,,,,,,,01903 843000,,,,1,,J,,,,50.8412,-0.41114
RX3,"TEES, ESK AND WEAR VALLEYS NHS FOUNDATION TRUST",Y63,QHM,TRUST HEADQUARTERS,WEST PARK HOSPITAL,EDWARD PEASE WAY,DARLINGTON,,DL2 2TS,20060401,,,,,,,01325 552077,,,,1,,A,,,,54.543,-1.591
RX4,"CUMBRIA, NORTHUMBERLAND, TYNE AND WEAR NHS FOUNDATION TRUST",Y63,QHM,ST NICHOLAS HOSPITAL,JUBILEE ROAD,GOSFORTH,NEWCASTLE UPON TYNE,,NE3 3XT,20060401,,,,,,,0191 246 6800,,,,1,,A,,,,55.00649,-1.6331
RX6,NORTH EAST AMBULANCE SERVICE NHS FOUNDATION TRUST,Y63,QHM,BERNICIA HOUSE,THE WATERFRONT,GOLDCREST WAY,NEWCASTLE UPON TYNE,,NE15 8NY,20060701,,,,,,,0191 430 2000,,,,1,,A,,,,54.96971,-1.71237
RX7,NORTH WEST AMBULANCE SERVICE NHS TRUST,Y62,QOP,LADYBRIDGE HALL,399 CHORLEY NEW ROAD,,BOLTON,,BL1 5DD,20060701,,,,,,,0345 112 0999,,,,1,,B,,,,53.57902,-2.4758
RX8,YORKSHIRE AMBULANCE SERVICE NHS TRUST,Y63,QWO,SPRINGHILL,2 BRINDLEY WAY,WAKEFIELD 41 INDUSTRIAL ESTATE,WAKEFIELD,,WF2 0XQ,20060701,,,,,,,0333 130 0550,,,,1,,D,,,,53.709,-1.519
RX9,EAST MIDLANDS AMBULANCE SERVICE NHS TRUST,Y60,QT1,1 HORIZON PLACE,MELLORS WAY,NOTTINGHAM BUSINESS PARK,NOTTINGHAM,,NG8 6PY,20060701,,,,,,,0115 884 5000,,,,1,,E,,,,52.98146,-1.23812
RXA,CHESHIRE AND WIRRAL PARTNERSHIP NHS FOUNDATION TRUST,Y62,QYG,TRUST HEADQUARTERS REDESMERE,THE COUNTESS OF CHESTER HEALTH PARK,LIVERPOOL ROAD,CHESTER,,CH2 1BQ,20020401,,,,,,,01244 397397,,,,1,,B,,,,53.21154,-2.89883
RXC,EAST SUSSEX HEALTHCARE NHS TRUST,Y59,QNX,ST ANNES HOUSE,729 THE RIDGE,,ST. LEONARDS-ON-SEA,,TN37 7PT,20020401,,,,,,,01424 755255,,,,1,,J,,,,50.88766,0.56202
RXD,EAST SUSSEX COUNTY HEALTHCARE NHS TRUST,Y59,QNX,"BOWHILL, MANAGEMENT HEADQUARTERS",THE DRIVE,HELLINGLY,HAILSHAM,,BN27 4EP,20020401,20060331,,,,,,01323 440022,,,,1,,J,,,,50.89006,0.26355
RXE,ROTHERHAM DONCASTER AND SOUTH HUMBER NHS FOUNDATION TRUST,Y63,QF7,WOODFIELD HOUSE,TICKHILL ROAD,,DONCASTER,,DN4 8QN,20040401,,,,,,,01302 796000,,,,1,,D,,,,53.49481,-1.14598
RXF,MID YORKSHIRE TEACHING NHS TRUST,Y63,QWO,PINDERFIELDS HOSPITAL,ABERFORD ROAD,,WAKEFIELD,,WF1 4DG,20020401,,,,,,,01924 541000,,,,1,,D,,,,53.69242,-1.48856
RXG,SOUTH WEST YORKSHIRE PARTNERSHIP NHS FOUNDATION TRUST,Y63,QWO,TRUST HEADQUARTERS,FIELDHEAD HOSPITAL,OUCHTHORPE LANE,WAKEFIELD,,WF1 3SP,20020401,,,,,,,01924 316000,,,,1,,D,,,,53.69734,-1.49405
RXH,BRIGHTON AND SUSSEX UNIVERSITY HOSPITALS NHS TRUST,Y59,QNX,ROYAL SUSSEX COUNTY HOSPITAL,EASTERN ROAD,,BRIGHTON,,BN2 5BE,20020401,20210331,,,,,,01273 696955,,,,1,,J,,,,50.81946,-0.11815
RXK,SANDWELL AND WEST BIRMINGHAM HOSPITALS NHS TRUST,Y60,QUA,MIDLAND METROPOLITAN UNIVERSITY HOS,GROVE LANE,,SMETHWICK,,B66 2QT,20020401,,,,,,,0121 553 1831,,,,1,,F,,,,52.49126,-1.94985
RXL,BLACKPOOL TEACHING HOSPITALS NHS FOUNDATION TRUST,Y62,QE1,VICTORIA HOSPITAL,WHINNEY HEYS ROAD,,BLACKPOOL,,FY3 8NR,20020401,,,,,,,01253 300000,,,,1,,B,,,,53.82067,-3.01626
RXM,DERBYSHIRE HEALTHCARE NHS FOUNDATION TRUST,Y60,QJ2,TRUST HEADQUARTERS,KINGSWAY HOSPITAL,KINGSWAY,DERBY,,DE22 3LZ,20020401,,,,,,,01332 623700,,,,1,,E,,,,52.91741,-1.51495
RXN,LANCASHIRE TEACHING HOSPITALS NHS FOUNDATION TRUST,Y62,QE1,ROYAL PRESTON HOSPITAL,SHAROE GREEN LANE,FULWOOD,PRESTON,,PR2 9HT,20020801,,,,,,,01772 716565,,,,1,,B,,,,53.792,-2.707
RXP,COUNTY DURHAM AND DARLINGTON NHS FOUNDATION TRUST,Y63,QHM,DARLINGTON MEMORIAL HOSPITAL,HOLLYHURST ROAD,,DARLINGTON,,DL3 6HX,20021001,,,,,,,01325 380100,,,,1,,A,,,,54.53037,-1.56373
RXQ,BUCKINGHAMSHIRE HEALTHCARE NHS TRUST,Y59,QU9,AMERSHAM HOSPITAL,WHIELDEN STREET,,AMERSHAM,,HP7 0JD,20030401,,,,,,,01494 434411,,,,1,,J,,,,51.66295,-0.62139
RXR,EAST LANCASHIRE HOSPITALS NHS TRUST,Y62,QE1,ROYAL BLACKBURN HOSPITAL,HASLINGDEN ROAD,,BLACKBURN,,BB2 3HH,20030401,,,,,,,01282 425071,,,,1,,B,,,,53.73558,-2.46272
RXT,BIRMINGHAM AND SOLIHULL MENTAL HEALTH NHS FOUNDATION TRUST,Y60,QHL,THE UFFCULME CENTRE,52 QUEENSBRIDGE ROAD,MOSELEY,BIRMINGHAM,,B13 8QY,20030401,,,,,,,0121 301 0000,,,,1,,F,,,,52.44093,-1.89709
RXV,GREATER MANCHESTER MENTAL HEALTH NHS FOUNDATION TRUST,Y62,QOP,PRESTWICH HOSPITAL,BURY NEW ROAD,PRESTWICH,MANCHESTER,,M25 3BL,20030401,,,,,,,0161 773 9121,,,,1,,B,,,,53.53675,-2.29147
RXW,THE SHREWSBURY AND TELFORD HOSPITAL NHS TRUST,Y60,QOC,MYTTON OAK ROAD,,,SHREWSBURY,,SY3 8XQ,20031001,,,,,,,01743 261000,,,,1,,F,,,,52.70936,-2.79375
RXX,SURREY AND BORDERS PARTNERSHIP NHS FOUNDATION TRUST,Y59,QXU,18 MOLE BUSINESS PARK,RANDALLS ROAD,,LEATHERHEAD,,KT22 7AD,20050401,,,,,,,0300 5555 222,,,,1,,J,,,,51.29758,-0.3356
RXY,KENT AND MEDWAY MENTAL HEALTH NHS TRUST,Y59,QKS,FARM VILLA,HERMITAGE LANE,,MAIDSTONE,,ME16 9PH,20060401,,,,,,,01622 724100,,,,1,,J,,,,51.27321,0.4857
RY1,LIVERPOOL COMMUNITY HEALTH NHS TRUST,Y62,QYG,2 ENTERPRISE WAY,,,LIVERPOOL,,L13 1FB,20101101,20180331,,,,,,,,,,1,,B,,,,53.40412,-2.92996
RY2,BRIDGEWATER COMMUNITY HEALTHCARE NHS FOUNDATION TRUST,Y62,QYG,89 DEWHURST ROAD,BIRCHWOOD,,WARRINGTON,,WA3 7PG,20101101,,,,,,,0844 264 3614,,,,1,,B,,,,53.41404,-2.52767
RY3,NORFOLK COMMUNITY HEALTH AND CARE NHS TRUST,Y61,QMM,NORWICH COMMUNITY HOSPITAL,BOWTHORPE ROAD,,NORWICH,,NR2 3TU,20101101,,,,,,,01603 697381,,,,1,,G,,,,52.63376,1.26241
RY4,HERTFORDSHIRE COMMUNITY NHS TRUST,Y61,QM7,UNIT 1A HOWARD COURT,14 TEWIN ROAD,,WELWYN GARDEN CITY,,AL7 1BW,20101101,,,,,,,01707 388 000,,,,1,,G,,,,51.80223,-0.19412
RY5,LINCOLNSHIRE COMMUNITY HEALTH SERVICES NHS TRUST,Y60,QJM,BEECH HOUSE,WITHAM PARK,WATERSIDE SOUTH,LINCOLN,,LN5 7JH,20110401,,,,,,,01522 308686,,,,1,,E,,,,53.22648,-0.52415
RY6,LEEDS COMMUNITY HEALTHCARE NHS TRUST,Y63,QWO,3 WHITE ROSE OFFICE PARK,MILLSHAW PARK LANE,,LEEDS,,LS11 0DL,20110401,,,,,,,0113 220 8500,,,,1,,D,,,,53.7631,-1.57456
RY7,WIRRAL COMMUNITY HEALTH AND CARE NHS FOUNDATION TRUST,Y62,QYG,DERBY ROAD,,,BIRKENHEAD,,CH42 0LQ,20110401,,,,,,,0151 514 2888,,,,1,,B,,,,53.38003,-3.02653
RY8,DERBYSHIRE COMMUNITY HEALTH SERVICES NHS FOUNDATION TRUST,Y60,QJ2,"TRUST HQ, ASH GREEN DISABILITY CTR",ASHGATE ROAD,ASHGATE,CHESTERFIELD,,S42 7JE,20110401,,,,,,,01246 565000,,,,1,,E,,,,53.24,-1.479
RY9,HOUNSLOW AND RICHMOND COMMUNITY HEALTHCARE NHS TRUST,Y56,QWE,THAMES HOUSE,180-194 HIGH STREET,,TEDDINGTON,,TW11 8HU,20110401,20241031,,,,,,020 8973 3000,,,,1,,H,,,,51.42743,-0.32661
RYA,WEST MIDLANDS AMBULANCE SERVICE UNIVERSITY NHS FOUNDATION TRUST,Y60,QUA,MILLENNIUM POINT,WATERFRONT BUSINESS PARK,DUDLEY ROAD,BRIERLEY HILL,,DY5 1LX,20060701,,,,,,,01384 215555,,,,1,,F,,,,52.48565,-2.11909
RYC,EAST OF ENGLAND AMBULANCE SERVICE NHS TRUST,Y61,QUE,UNIT 3,WHITING WAY,MELBOURN,ROYSTON,,SG8 6NA,20060701,,,,,,,0345 601 3733,,,,1,,G,,,,52.07662,0.01417
RYD,SOUTH EAST COAST AMBULANCE SERVICE NHS FOUNDATION TRUST,Y59,QNX,TRUST HEADQUARTERS,NEXUS HOUSE,4 GATWICK ROAD,CRAWLEY,,RH10 9BG,20060701,,,,,,,0300 123 0999,,,,1,,J,,,,51.13275,-0.16897
RYE,SOUTH CENTRAL AMBULANCE SERVICE NHS FOUNDATION TRUST,Y59,QU9,7-8 TALISMAN BUSINESS CENTRE,TALISMAN ROAD,,BICESTER,,OX26 6HR,20060701,,,,,,,01869 365000,,,,1,,J,,,,51.89165,-1.14953
RYF,SOUTH WESTERN AMBULANCE SERVICE NHS FOUNDATION TRUST,Y58,QJK,ABBEY COURT,EAGLE WAY,SOWTON INDUSTRIAL ESTATE,EXETER,,EX2 7HY,20060701,,,,,,,0300 369 0130,,,,1,,K,,,,50.72017,-3.46474
RYG,COVENTRY AND WARWICKSHIRE PARTNERSHIP NHS TRUST,Y60,QWU,WAYSIDE HOUSE,WILSONS LANE,,COVENTRY,,CV6 6NY,20061001,,,,,,,024 7636 2100,,,,1,,F,,,,52.45712,-1.48653
RYH,NHS DIRECT NHS TRUST,Y56,QMF,120 LEMAN STREET,,,LONDON,,E1 8EU,20070401,20140331,,,,,,0845 4647,,,,1,,H,,,,51.51291,-0.0702
RYJ,IMPERIAL COLLEGE HEALTHCARE NHS TRUST,Y56,QRV,THE BAYS,ST MARYS HOSPITAL,SOUTH WHARF ROAD,LONDON,,W2 1BL,20071001,,,,,,,020 3311 3311,,,,1,,H,,,,51.51754,-0.17441
RYK,DUDLEY INTEGRATED HEALTH AND CARE NHS TRUST,Y60,QUA,VENTURE WAY,,,BRIERLEY HILL,,DY5 1RU,20081001,20240930,,,,,,01922 607 000,,,,1,,F,,,,52.4817,-2.11768
RYQ,SOUTH LONDON HEALTHCARE NHS TRUST,Y56,QKK,QUEEN MARY'S HOSPITAL,FROGNAL AVENUE,,SIDCUP,,DA14 6LT,20090401,20130930,,,,,,,,,,1,,H,,,,51.41904,0.10169
RYR,UNIVERSITY HOSPITALS SUSSEX NHS FOUNDATION TRUST,Y59,QNX,WORTHING HOSPITAL,LYNDHURST ROAD,,WORTHING,,BN11 2DH,20090401,,,,,,,01903 205111,,,,1,,J,,,,50.81668,-0.3634
RYT,PUBLIC HEALTH WALES NHS TRUST,,,2 CAPITAL QUARTER,TYNDALL STREET,,CARDIFF,,CF10 4BZ,20091001,,,,,,,,,,,1,,W,,,,51.47716,-3.16876
RYV,CAMBRIDGESHIRE COMMUNITY SERVICES NHS TRUST,Y61,QUE,UNIT 7-8,MEADOW PARK,MEADOW LANE,ST. IVES,,PE27 4LG,20100401,,,,,,,0300 555 6655,,,,1,,G,,,,52.32225,-0.06528
RYW,BIRMINGHAM COMMUNITY HEALTHCARE NHS FOUNDATION TRUST,Y60,QHL,3 PRIESTLEY WHARF,HOLT STREET,"BIRMINGHAM SCIENCE PARK, ASTON",BIRMINGHAM,,B7 4BN,20101101,,,,,,,0121 466 6000,,,,1,,F,,,,52.48734,-1.88582
RYX,CENTRAL LONDON COMMUNITY HEALTHCARE NHS TRUST,Y56,QRV,GROUND FLOOR,15 MARYLEBONE ROAD,,LONDON,,NW1 5JD,20101101,,,,,,,020 7798 1300,,,,1,,H,,,,51.52284,-0.15154
RYY,KENT COMMUNITY HEALTH NHS FOUNDATION TRUST,Y59,QKS,TRINITY HOUSE,110-120 EUREKA PARK,EUREKA BUSINESS PARK,ASHFORD,,TN25 4AZ,20101101,,,,,,,01622 211900,,,,1,,J,,,,51.17193,0.87064
